  frame_id: base_scan
angle_min: 0.0
angle_max: 6.28000020980835
angle_increment: 0.01749303564429283
time_increment: 0.0
scan_time: 0.0
range_min: 0.11999999731779099
range_max: 3.5
ranges:
- 1.9894156455993652
- 1.9818955659866333
- 1.9927419424057007
- 1.9853215217590332
- 1.990260124206543
- 2.0017268657684326
- 1.992422103881836
- 2.007538080215454
- 2.017742156982422
- 2.0066468715667725
- 2.0366077423095703
- 2.0441861152648926
- 2.0431737899780273
- 2.0673739910125732
- 2.0902397632598877
- 2.092334508895874
- 2.111823081970215
- 2.106806755065918
- 2.129950761795044
- 2.1496055126190186
- 2.153538227081299
- 2.180907964706421
- 2.183082342147827
- 2.222376823425293
- 2.2379050254821777
- 2.2523066997528076
- 2.2736830711364746
- 2.312335968017578
- 2.327308177947998
- 2.354888439178467
- 2.385077953338623
- 2.417278289794922
- 2.4326155185699463
- 2.4747116565704346
- 2.4978857040405273
- 2.531240463256836
- 2.5722415447235107
- 2.617443084716797
- 2.6547722816467285
- 2.7077720165252686
- 2.740373373031616
- 2.798590660095215
- 2.8417036533355713
- 2.8949217796325684
- 2.9478278160095215
- 3.018023729324341
- 3.0704410076141357
- 3.135133743286133
- 3.219902276992798
- 3.2485079765319824
- 3.2157692909240723
- 3.177893877029419
- 3.1383655071258545
- 3.092616319656372
- 1.32201087474823
- 1.2960869073867798
- 1.2703179121017456
- 1.2746107578277588
- 1.2740854024887085
- 1.2639468908309937
- 1.2353390455245972
- 1.265661358833313
- 1.2727218866348267
- 1.2912856340408325
- 1.292236566543579
- 1.3353047370910645
- 2.766826629638672
- 2.7388415336608887
- 2.7417099475860596
- 2.7356739044189453
- 2.722393751144409
- 2.709467649459839
- 2.6763288974761963
- 2.6713249683380127
- 2.6522209644317627
- 2.65632963180542
- 2.6374671459198
- 2.636873722076416
- 2.6218762397766113
- 2.619976043701172
- 2.6193647384643555
- 2.60799503326416
- 2.611424684524536
- 2.6046979427337646
- 2.6172735691070557
- 2.594940662384033
- 2.6100618839263916
- 2.575249195098877
- 2.5990333557128906
- 2.606534481048584
- 2.595496892929077
- 2.622860908508301
- 2.6250550746917725
- 2.619823455810547
- 2.640625
- 2.642564535140991
- 2.652181625366211
- 2.6614816188812256
- 2.6794137954711914
- 2.6512155532836914
- 2.6993496417999268
- 2.695068836212158
- 2.7039456367492676
- 2.733273506164551
- 2.746450185775757
- 2.762467384338379
- 2.7666144371032715
- 2.8010857105255127
- 2.817516803741455
- 2.8212876319885254
- 2.8789429664611816
- 2.8932504653930664
- 2.898540735244751
- 2.920498847961426
- 2.9753341674804688
- 2.9987525939941406
- 3.0203962326049805
- 3.05545711517334
- 3.079601526260376
- 3.1336660385131836
- 3.137695789337158
- 3.1986911296844482
- 3.215503215789795
- 3.3036184310913086
- 3.3254458904266357
- 3.379316568374634
- 3.423617362976074
- 3.4741663932800293
- '...'
intensities:
- 0.0
- 0.0
- 0.0
- 0.0
- 0.0
- 0.0
- 0.0
- 0.0
- 0.0
- 0.0
- 0.0
- 0.0
- 0.0
- 0.0
- 0.0
- 0.0
- 0.0
- 0.0
- 0.0
- 0.0
- 0.0
- 0.0
- 0.0
- 0.0
- 0.0
- 0.0
- 0.0
- 0.0
- 0.0
- 0.0
- 0.0
- 0.0
- 0.0
- 0.0
- 0.0
- 0.0
- 0.0
- 0.0
- 0.0
- 0.0
- 0.0
- 0.0
- 0.0
- 0.0
- 0.0
- 0.0
- 0.0
- 0.0
- 0.0
- 0.0
- 0.0
- 0.0
- 0.0
- 0.0
- 0.0
- 0.0
- 0.0
- 0.0
- 0.0
- 0.0
- 0.0
- 0.0
- 0.0
- 0.0
- 0.0
- 0.0
- 0.0
- 0.0
- 0.0
- 0.0
- 0.0
- 0.0
- 0.0
- 0.0
- 0.0
- 0.0
- 0.0
- 0.0
- 0.0
- 0.0
- 0.0
- 0.0
- 0.0
- 0.0
- 0.0
- 0.0
- 0.0
- 0.0
- 0.0
- 0.0
- 0.0
- 0.0
- 0.0
- 0.0
- 0.0
- 0.0
- 0.0
- 0.0
- 0.0
- 0.0
- 0.0
- 0.0
- 0.0
- 0.0
- 0.0
- 0.0
- 0.0
- 0.0
- 0.0
- 0.0
- 0.0
- 0.0
- 0.0
- 0.0
- 0.0
- 0.0
- 0.0
- 0.0
- 0.0
- 0.0
- 0.0
- 0.0
- 0.0
- 0.0
- 0.0
- 0.0
- 0.0
- 0.0
- '...'
---
header:
  stamp:
    sec: 523
    nanosec: 715000000
  frame_id: base_scan
angle_min: 0.0
angle_max: 6.28000020980835
angle_increment: 0.01749303564429283
time_increment: 0.0
scan_time: 0.0
range_min: 0.11999999731779099
range_max: 3.5
ranges:
- 1.9654170274734497
- 1.9757343530654907
- 2.002866744995117
- 1.9794522523880005
- 1.9860587120056152
- 1.995208740234375
- 1.9982274770736694
- 2.012003183364868
- 2.0162086486816406
- 2.0187153816223145
- 2.025442123413086
- 2.051603317260742
- 2.0418779850006104
- 2.059870481491089
- 2.0665576457977295
- 2.0909056663513184
- 2.109424591064453
- 2.108365774154663
- 2.1090269088745117
- 2.1475274562835693
- 2.1418750286102295
- 2.2053229808807373
- 2.189770221710205
- 2.2112154960632324
- 2.238111734390259
- 2.259397029876709
- 2.2812182903289795
- 2.289302349090576
- 2.331787586212158
- 2.3767824172973633
- 2.37274432182312
- 2.4142775535583496
- 2.412003755569458
- 2.461223602294922
- 2.51567006111145
- 2.5312113761901855
- 2.5841221809387207
- 2.618354082107544
- 2.659109354019165
- 2.6975388526916504
- 2.7344274520874023
- 2.7840964794158936
- 2.8333635330200195
- 2.902833938598633
- 2.963639736175537
- 3.0013132095336914
- 3.0872011184692383
- 3.1590487957000732
- 3.2249765396118164
- 3.261779546737671
- 3.2228875160217285
- 3.195251703262329
- 3.135500907897949
- 3.089458465576172
- 1.3476163148880005
- 1.3018146753311157
- 1.257034182548523
- 1.262032151222229
- 1.2530372142791748
- 1.2422380447387695
- 1.2425357103347778
- 1.2609788179397583
- 1.2599055767059326
- 1.2700272798538208
- 1.2834938764572144
- 1.3249012231826782
- 2.7590420246124268
- 2.748683214187622
- 2.7440006732940674
- 2.723921775817871
- 2.700357675552368
- 2.690194845199585
- 2.6653010845184326
- 2.6729562282562256
- 2.667210102081299
- 2.6673648357391357
- 2.6391561031341553
- 2.635054588317871
- 2.62967586517334
- 2.6342029571533203
- 2.6158876419067383
- 2.622713804244995
- 2.624037027359009
- 2.617271661758423
- 2.6008596420288086
- 2.596221923828125
- 2.6026525497436523
- 2.5961434841156006
- 2.5853488445281982
- 2.600163459777832
- 2.6377313137054443
- 2.610602855682373
- 2.633859395980835
- 2.612840414047241
- 2.632526159286499
- 2.6576929092407227
- 2.6461031436920166
- 2.658404588699341
- 2.6745805740356445
- 2.686962842941284
- 2.7010390758514404
- 2.704369068145752
- 2.698460340499878
- 2.752936840057373
- 2.7359297275543213
- 2.762178659439087
- 2.775655508041382
- 2.790170669555664
- 2.8182826042175293
- 2.8252811431884766
- 2.867602586746216
- 2.908808708190918
- 2.903174877166748
- 2.9350368976593018
- 2.9810569286346436
- 2.9856083393096924
- 3.0249478816986084
- 3.0597829818725586
- 3.094372510910034
- 3.1149563789367676
- 3.1488704681396484
- 3.2048075199127197
- 3.222235679626465
- 3.2713284492492676
- 3.322591543197632
- 3.3724234104156494
- 3.4152352809906006
- 3.4667322635650635
- '...'
intensities:
- 0.0
- 0.0
- 0.0
- 0.0
- 0.0
- 0.0
- 0.0
- 0.0
- 0.0
- 0.0
- 0.0
- 0.0
- 0.0
- 0.0
- 0.0
- 0.0
- 0.0
- 0.0
- 0.0
- 0.0
- 0.0
- 0.0
- 0.0
- 0.0
- 0.0
- 0.0
- 0.0
- 0.0
- 0.0
- 0.0
- 0.0
- 0.0
- 0.0
- 0.0
- 0.0
- 0.0
- 0.0
- 0.0
- 0.0
- 0.0
- 0.0
- 0.0
- 0.0
- 0.0
- 0.0
- 0.0
- 0.0
- 0.0
- 0.0
- 0.0
- 0.0
- 0.0
- 0.0
- 0.0
- 0.0
- 0.0
- 0.0
- 0.0
- 0.0
- 0.0
- 0.0
- 0.0
- 0.0
- 0.0
- 0.0
- 0.0
- 0.0
- 0.0
- 0.0
- 0.0
- 0.0
- 0.0
- 0.0
- 0.0
- 0.0
- 0.0
- 0.0
- 0.0
- 0.0
- 0.0
- 0.0
- 0.0
- 0.0
- 0.0
- 0.0
- 0.0
- 0.0
- 0.0
- 0.0
- 0.0
- 0.0
- 0.0
- 0.0
- 0.0
- 0.0
- 0.0
- 0.0
- 0.0
- 0.0
- 0.0
- 0.0
- 0.0
- 0.0
- 0.0
- 0.0
- 0.0
- 0.0
- 0.0
- 0.0
- 0.0
- 0.0
- 0.0
- 0.0
- 0.0
- 0.0
- 0.0
- 0.0
- 0.0
- 0.0
- 0.0
- 0.0
- 0.0
- 0.0
- 0.0
- 0.0
- 0.0
- 0.0
- 0.0
- '...'
---
header:
  stamp:
    sec: 523
    nanosec: 915000000
  frame_id: base_scan
angle_min: 0.0
angle_max: 6.28000020980835
angle_increment: 0.01749303564429283
time_increment: 0.0
scan_time: 0.0
range_min: 0.11999999731779099
range_max: 3.5
ranges:
- 1.974945306777954
- 1.9801234006881714
- 1.9820464849472046
- 1.9874873161315918
- 1.9794081449508667
- 2.024193286895752
- 1.9916542768478394
- 2.004366636276245
- 2.0256834030151367
- 2.029609441757202
- 2.031928300857544
- 2.0404505729675293
- 2.040907859802246
- 2.0512826442718506
- 2.070833444595337
- 2.096759557723999
- 2.083806037902832
- 2.1088778972625732
- 2.1388659477233887
- 2.139253854751587
- 2.1507632732391357
- 2.1935408115386963
- 2.1847786903381348
- 2.2094850540161133
- 2.2385730743408203
- 2.2249135971069336
- 2.2637107372283936
- 2.3149991035461426
- 2.326465606689453
- 2.3530020713806152
- 2.37325119972229
- 2.4077413082122803
- 2.4470744132995605
- 2.46606707572937
- 2.5099902153015137
- 2.538592576980591
- 2.573413372039795
- 2.606827974319458
- 2.6540303230285645
- 2.6847574710845947
- 2.7353851795196533
- 2.790517568588257
- 2.8580219745635986
- 2.9030721187591553
- 2.968259811401367
- 3.016958236694336
- 3.0864458084106445
- 3.142514705657959
- 3.2036030292510986
- 3.2537264823913574
- 3.207458972930908
- 3.1562907695770264
- 3.112361431121826
- 3.100175619125366
- 1.3274515867233276
- 1.2978018522262573
- 1.276984453201294
- 1.260048747062683
- 1.2467492818832397
- 1.2335816621780396
- 1.2351659536361694
- 1.252603530883789
- 1.2525280714035034
- 1.2782871723175049
- 1.2882832288742065
- 1.3307387828826904
- 2.7771708965301514
- 2.7424240112304688
- 2.7334983348846436
- 2.715712308883667
- 2.730799674987793
- 2.6938834190368652
- 2.67402982711792
- 2.661409616470337
- 2.6671299934387207
- 2.6563212871551514
- 2.6481430530548096
- 2.6224164962768555
- 2.6357080936431885
- 2.6208996772766113
- 2.6194403171539307
- 2.6056406497955322
- 2.616903305053711
- 2.622758626937866
- 2.6060636043548584
- 2.6118783950805664
- 2.6038384437561035
- 2.610556125640869
- 2.5900003910064697
- 2.6090543270111084
- 2.597672939300537
- 2.6200897693634033
- 2.6163506507873535
- 2.6280574798583984
- 2.6414506435394287
- 2.6397438049316406
- 2.63887882232666
- 2.6443943977355957
- 2.6729023456573486
- 2.6801974773406982
- 2.6879115104675293
- 2.7064316272735596
- 2.711339235305786
- 2.7235918045043945
- 2.751563787460327
- 2.7573368549346924
- 2.7911767959594727
- 2.8022170066833496
- 2.8215715885162354
- 2.832566738128662
- 2.8579089641571045
- 2.8776001930236816
- 2.9105100631713867
- 2.934328317642212
- 2.9516146183013916
- 2.976979970932007
- 3.0084006786346436
- 3.0538549423217773
- 3.078845500946045
- 3.137540578842163
- 3.1638612747192383
- 3.191666841506958
- 3.2360849380493164
- 3.288081169128418
- 3.300926685333252
- 3.3814194202423096
- 3.4239797592163086
- 3.4768731594085693
- '...'
intensities:
- 0.0
- 0.0
- 0.0
- 0.0
- 0.0
- 0.0
- 0.0
- 0.0
- 0.0
- 0.0
- 0.0
- 0.0
- 0.0
- 0.0
- 0.0
- 0.0
- 0.0
- 0.0
- 0.0
- 0.0
- 0.0
- 0.0
- 0.0
- 0.0
- 0.0
- 0.0
- 0.0
- 0.0
- 0.0
- 0.0
- 0.0
- 0.0
- 0.0
- 0.0
- 0.0
- 0.0
- 0.0
- 0.0
- 0.0
- 0.0
- 0.0
- 0.0
- 0.0
- 0.0
- 0.0
- 0.0
- 0.0
- 0.0
- 0.0
- 0.0
- 0.0
- 0.0
- 0.0
- 0.0
- 0.0
- 0.0
- 0.0
- 0.0
- 0.0
- 0.0
- 0.0
- 0.0
- 0.0
- 0.0
- 0.0
- 0.0
- 0.0
- 0.0
- 0.0
- 0.0
- 0.0
- 0.0
- 0.0
- 0.0
- 0.0
- 0.0
- 0.0
- 0.0
- 0.0
- 0.0
- 0.0
- 0.0
- 0.0
- 0.0
- 0.0
- 0.0
- 0.0
- 0.0
- 0.0
- 0.0
- 0.0
- 0.0
- 0.0
- 0.0
- 0.0
- 0.0
- 0.0
- 0.0
- 0.0
- 0.0
- 0.0
- 0.0
- 0.0
- 0.0
- 0.0
- 0.0
- 0.0
- 0.0
- 0.0
- 0.0
- 0.0
- 0.0
- 0.0
- 0.0
- 0.0
- 0.0
- 0.0
- 0.0
- 0.0
- 0.0
- 0.0
- 0.0
- 0.0
- 0.0
- 0.0
- 0.0
- 0.0
- 0.0
- '...'
---
header:
  stamp:
    sec: 524
    nanosec: 116000000
  frame_id: base_scan
angle_min: 0.0
angle_max: 6.28000020980835
angle_increment: 0.01749303564429283
time_increment: 0.0
scan_time: 0.0
range_min: 0.11999999731779099
range_max: 3.5
ranges:
- 1.9834685325622559
- 1.9672996997833252
- 1.986487627029419
- 1.9661608934402466
- 1.9993072748184204
- 1.995750069618225
- 2.004136323928833
- 2.014760732650757
- 2.0067226886749268
- 2.0245752334594727
- 2.030277729034424
- 2.0516905784606934
- 2.035283327102661
- 2.0614867210388184
- 2.0598716735839844
- 2.0784993171691895
- 2.104262351989746
- 2.1060476303100586
- 2.1286444664001465
- 2.1448919773101807
- 2.158311367034912
- 2.190452814102173
- 2.200685501098633
- 2.2197041511535645
- 2.226315498352051
- 2.2548580169677734
- 2.269340991973877
- 2.3003411293029785
- 2.332589864730835
- 2.3535850048065186
- 2.407202959060669
- 2.4023616313934326
- 2.4317848682403564
- 2.474442481994629
- 2.5060572624206543
- 2.5526607036590576
- 2.5806069374084473
- 2.6215548515319824
- 2.6537280082702637
- 2.688037872314453
- 2.737675905227661
- 2.807680368423462
- 2.859591007232666
- 2.902013063430786
- 2.946014881134033
- 3.0122294425964355
- 3.0809683799743652
- 3.139387607574463
- 3.202871084213257
- 3.268160581588745
- 3.197859525680542
- 3.146868944168091
- 3.1417276859283447
- 3.109001636505127
- 1.3204022645950317
- 1.3014968633651733
- 1.2687206268310547
- 1.277711272239685
- 1.2607637643814087
- 1.265452265739441
- 1.258220911026001
- 1.243597388267517
- 1.2603039741516113
- 1.2803093194961548
- 1.3223788738250732
- 1.3351446390151978
- 2.7450003623962402
- 2.7590248584747314
- 2.7336063385009766
- 2.720083475112915
- 2.7184019088745117
- 2.7075142860412598
- 2.653488874435425
- 2.6755285263061523
- 2.6734495162963867
- 2.6474108695983887
- 2.6584582328796387
- 2.6548893451690674
- 2.630582332611084
- 2.628331184387207
- 2.6200857162475586
- 2.612436056137085
- 2.6026384830474854
- 2.6196134090423584
- 2.610285997390747
- 2.606743574142456
- 2.6056976318359375
- 2.6029791831970215
- 2.6117029190063477
- 2.6236932277679443
- 2.6152782440185547
- 2.6239283084869385
- 2.621866464614868
- 2.636685848236084
- 2.643726110458374
- 2.6443495750427246
- 2.6391375064849854
- 2.6505093574523926
- 2.6892623901367188
- 2.6837353706359863
- 2.674041986465454
- 2.69073486328125
- 2.709369421005249
- 2.730940341949463
- 2.738584518432617
- 2.763958215713501
- 2.775803327560425
- 2.7999634742736816
- 2.807387590408325
- 2.8489058017730713
- 2.8648459911346436
- 2.889486312866211
- 2.9127144813537598
- 2.9368648529052734
- 2.979997158050537
- 2.9737324714660645
- 3.010180950164795
- 3.040706157684326
- 3.0955026149749756
- 3.1178171634674072
- 3.1518537998199463
- 3.1889424324035645
- 3.2410614490509033
- 3.279416799545288
- 3.334987163543701
- 3.371227264404297
- 3.415677309036255
- 3.496617078781128
- '...'
intensities:
- 0.0
- 0.0
- 0.0
- 0.0
- 0.0
- 0.0
- 0.0
- 0.0
- 0.0
- 0.0
- 0.0
- 0.0
- 0.0
- 0.0
- 0.0
- 0.0
- 0.0
- 0.0
- 0.0
- 0.0
- 0.0
- 0.0
- 0.0
- 0.0
- 0.0
- 0.0
- 0.0
- 0.0
- 0.0
- 0.0
- 0.0
- 0.0
- 0.0
- 0.0
- 0.0
- 0.0
- 0.0
- 0.0
- 0.0
- 0.0
- 0.0
- 0.0
- 0.0
- 0.0
- 0.0
- 0.0
- 0.0
- 0.0
- 0.0
- 0.0
- 0.0
- 0.0
- 0.0
- 0.0
- 0.0
- 0.0
- 0.0
- 0.0
- 0.0
- 0.0
- 0.0
- 0.0
- 0.0
- 0.0
- 0.0
- 0.0
- 0.0
- 0.0
- 0.0
- 0.0
- 0.0
- 0.0
- 0.0
- 0.0
- 0.0
- 0.0
- 0.0
- 0.0
- 0.0
- 0.0
- 0.0
- 0.0
- 0.0
- 0.0
- 0.0
- 0.0
- 0.0
- 0.0
- 0.0
- 0.0
- 0.0
- 0.0
- 0.0
- 0.0
- 0.0
- 0.0
- 0.0
- 0.0
- 0.0
- 0.0
- 0.0
- 0.0
- 0.0
- 0.0
- 0.0
- 0.0
- 0.0
- 0.0
- 0.0
- 0.0
- 0.0
- 0.0
- 0.0
- 0.0
- 0.0
- 0.0
- 0.0
- 0.0
- 0.0
- 0.0
- 0.0
- 0.0
- 0.0
- 0.0
- 0.0
- 0.0
- 0.0
- 0.0
- '...'
---
header:
  stamp:
    sec: 524
    nanosec: 315000000
  frame_id: base_scan
angle_min: 0.0
angle_max: 6.28000020980835
angle_increment: 0.01749303564429283
time_increment: 0.0
scan_time: 0.0
range_min: 0.11999999731779099
range_max: 3.5
ranges:
- 1.9805749654769897
- 1.9751091003417969
- 1.986366629600525
- 1.9851458072662354
- 1.99583101272583
- 1.9918453693389893
- 1.9923874139785767
- 2.00235652923584
- 2.0157902240753174
- 2.043358564376831
- 2.029674530029297
- 2.0289690494537354
- 2.043071985244751
- 2.04445481300354
- 2.0742571353912354
- 2.0829217433929443
- 2.108755111694336
- 2.1275792121887207
- 2.1411352157592773
- 2.1507174968719482
- 2.137924909591675
- 2.194719076156616
- 2.18654203414917
- 2.232745409011841
- 2.226971387863159
- 2.2597076892852783
- 2.286100387573242
- 2.3002705574035645
- 2.326486349105835
- 2.353996992111206
- 2.3723373413085938
- 2.4054760932922363
- 2.434709310531616
- 2.4809958934783936
- 2.5170204639434814
- 2.521998882293701
- 2.576535701751709
- 2.6191887855529785
- 2.6778786182403564
- 2.712831974029541
- 2.758512258529663
- 2.793327808380127
- 2.835408926010132
- 2.9019949436187744
- 2.951051712036133
- 3.0029640197753906
- 3.06430983543396
- 3.1350021362304688
- 3.2230517864227295
- 3.2671055793762207
- 3.1959125995635986
- 3.1761069297790527
- 3.134965419769287
- 3.091844320297241
- 1.3276288509368896
- 1.2900363206863403
- 1.2543514966964722
- 1.2739243507385254
- 1.248810052871704
- 1.2371257543563843
- 1.2405369281768799
- 1.2592976093292236
- 1.2677090167999268
- 1.2667423486709595
- 1.3116455078125
- 1.339385986328125
- 2.7617599964141846
- 2.7549495697021484
- 2.7318079471588135
- 2.7160463333129883
- 2.7096922397613525
- 2.693223237991333
- 2.676710367202759
- 2.678102970123291
- 2.6798133850097656
- 2.643214225769043
- 2.62895131111145
- 2.647691249847412
- 2.6468732357025146
- 2.6077494621276855
- 2.606762170791626
- 2.6177120208740234
- 2.6260921955108643
- 2.6089415550231934
- 2.6137428283691406
- 2.627786874771118
- 2.6024210453033447
- 2.604013442993164
- 2.5977931022644043
- 2.6190810203552246
- 2.6074821949005127
- 2.6256375312805176
- 2.613734245300293
- 2.6170294284820557
- 2.648744583129883
- 2.6265532970428467
- 2.6625471115112305
- 2.653064489364624
- 2.6667795181274414
- 2.6857354640960693
- 2.6955668926239014
- 2.694455862045288
- 2.7207143306732178
- 2.7341485023498535
- 2.74263596534729
- 2.7684943675994873
- 2.7746527194976807
- 2.7986347675323486
- 2.8149771690368652
- 2.848114252090454
- 2.877134084701538
- 2.8804397583007812
- 2.8968310356140137
- 2.918205499649048
- 2.9412548542022705
- 3.0043134689331055
- 3.0174429416656494
- 3.054877519607544
- 3.068347215652466
- 3.1420795917510986
- 3.1556060314178467
- 3.1743717193603516
- 3.245527744293213
- 3.287031650543213
- 3.317718744277954
- 3.3701131343841553
- 3.421285629272461
- 3.4806675910949707
- '...'
intensities:
- 0.0
- 0.0
- 0.0
- 0.0
- 0.0
- 0.0
- 0.0
- 0.0
- 0.0
- 0.0
- 0.0
- 0.0
- 0.0
- 0.0
- 0.0
- 0.0
- 0.0
- 0.0
- 0.0
- 0.0
- 0.0
- 0.0
- 0.0
- 0.0
- 0.0
- 0.0
- 0.0
- 0.0
- 0.0
- 0.0
- 0.0
- 0.0
- 0.0
- 0.0
- 0.0
- 0.0
- 0.0
- 0.0
- 0.0
- 0.0
- 0.0
- 0.0
- 0.0
- 0.0
- 0.0
- 0.0
- 0.0
- 0.0
- 0.0
- 0.0
- 0.0
- 0.0
- 0.0
- 0.0
- 0.0
- 0.0
- 0.0
- 0.0
- 0.0
- 0.0
- 0.0
- 0.0
- 0.0
- 0.0
- 0.0
- 0.0
- 0.0
- 0.0
- 0.0
- 0.0
- 0.0
- 0.0
- 0.0
- 0.0
- 0.0
- 0.0
- 0.0
- 0.0
- 0.0
- 0.0
- 0.0
- 0.0
- 0.0
- 0.0
- 0.0
- 0.0
- 0.0
- 0.0
- 0.0
- 0.0
- 0.0
- 0.0
- 0.0
- 0.0
- 0.0
- 0.0
- 0.0
- 0.0
- 0.0
- 0.0
- 0.0
- 0.0
- 0.0
- 0.0
- 0.0
- 0.0
- 0.0
- 0.0
- 0.0
- 0.0
- 0.0
- 0.0
- 0.0
- 0.0
- 0.0
- 0.0
- 0.0
- 0.0
- 0.0
- 0.0
- 0.0
- 0.0
- 0.0
- 0.0
- 0.0
- 0.0
- 0.0
- 0.0
- '...'
---
header:
  stamp:
    sec: 524
    nanosec: 515000000
  frame_id: base_scan
angle_min: 0.0
angle_max: 6.28000020980835
angle_increment: 0.01749303564429283
time_increment: 0.0
scan_time: 0.0
range_min: 0.11999999731779099
range_max: 3.5
ranges:
- 1.9752223491668701
- 1.9727890491485596
- 1.9905210733413696
- 1.984642744064331
- 1.9817897081375122
- 1.9994454383850098
- 2.0033257007598877
- 2.0097954273223877
- 2.012397289276123
- 2.0274720191955566
- 2.036736249923706
- 2.047959566116333
- 2.0333499908447266
- 2.075589656829834
- 2.097484827041626
- 2.092327117919922
- 2.114769458770752
- 2.0864646434783936
- 2.1141316890716553
- 2.134916305541992
- 2.145508050918579
- 2.1966309547424316
- 2.1957812309265137
- 2.2082021236419678
- 2.2285444736480713
- 2.2675039768218994
- 2.273494005203247
- 2.302677631378174
- 2.3289809226989746
- 2.352339506149292
- 2.380924701690674
- 2.4112257957458496
- 2.4283721446990967
- 2.4678115844726562
- 2.5137076377868652
- 2.547616720199585
- 2.5886502265930176
- 2.594341278076172
- 2.6478452682495117
- 2.7062885761260986
- 2.7686243057250977
- 2.7972800731658936
- 2.852884531021118
- 2.8922688961029053
- 2.9560580253601074
- 3.0070126056671143
- 3.063096284866333
- 3.1419131755828857
- 3.209747791290283
- 3.2489681243896484
- 3.208385705947876
- 3.167755365371704
- 3.1353118419647217
- 3.0937249660491943
- 1.3349859714508057
- 1.3041945695877075
- 1.2753311395645142
- 1.2560820579528809
- 1.2510720491409302
- 1.2477236986160278
- 1.2526285648345947
- 1.2586084604263306
- 1.2664040327072144
- 1.2737562656402588
- 1.302454948425293
- 1.3377569913864136
- 2.7597737312316895
- 2.764726161956787
- 2.733844518661499
- 2.712845802307129
- 2.711435079574585
- 2.7132391929626465
- 2.6938722133636475
- 2.6836602687835693
- 2.6513569355010986
- 2.6548521518707275
- 2.6430110931396484
- 2.6198232173919678
- 2.6240129470825195
- 2.6382367610931396
- 2.6202399730682373
- 2.625401496887207
- 2.6098711490631104
- 2.6249825954437256
- 2.6142923831939697
- 2.601274013519287
- 2.6035006046295166
- 2.6006367206573486
- 2.6107394695281982
- 2.6076931953430176
- 2.6341445446014404
- 2.623426914215088
- 2.6142187118530273
- 2.6496829986572266
- 2.6513614654541016
- 2.6414735317230225
- 2.6541759967803955
- 2.668433666229248
- 2.6614768505096436
- 2.680755138397217
- 2.6914117336273193
- 2.6987826824188232
- 2.7172653675079346
- 2.736102819442749
- 2.76310133934021
- 2.7692923545837402
- 2.7495813369750977
- 2.8014461994171143
- 2.8146142959594727
- 2.8573384284973145
- 2.854602813720703
- 2.870659828186035
- 2.9119644165039062
- 2.936152219772339
- 2.9474093914031982
- 2.971590757369995
- 3.0048928260803223
- 3.048449754714966
- 3.0867555141448975
- 3.117676258087158
- 3.1383697986602783
- 3.198171377182007
- 3.224989175796509
- 3.285536527633667
- 3.325510263442993
- 3.3772034645080566
- 3.4255521297454834
- 3.464808225631714
- '...'
intensities:
- 0.0
- 0.0
- 0.0
- 0.0
- 0.0
- 0.0
- 0.0
- 0.0
- 0.0
- 0.0
- 0.0
- 0.0
- 0.0
- 0.0
- 0.0
- 0.0
- 0.0
- 0.0
- 0.0
- 0.0
- 0.0
- 0.0
- 0.0
- 0.0
- 0.0
- 0.0
- 0.0
- 0.0
- 0.0
- 0.0
- 0.0
- 0.0
- 0.0
- 0.0
- 0.0
- 0.0
- 0.0
- 0.0
- 0.0
- 0.0
- 0.0
- 0.0
- 0.0
- 0.0
- 0.0
- 0.0
- 0.0
- 0.0
- 0.0
- 0.0
- 0.0
- 0.0
- 0.0
- 0.0
- 0.0
- 0.0
- 0.0
- 0.0
- 0.0
- 0.0
- 0.0
- 0.0
- 0.0
- 0.0
- 0.0
- 0.0
- 0.0
- 0.0
- 0.0
- 0.0
- 0.0
- 0.0
- 0.0
- 0.0
- 0.0
- 0.0
- 0.0
- 0.0
- 0.0
- 0.0
- 0.0
- 0.0
- 0.0
- 0.0
- 0.0
- 0.0
- 0.0
- 0.0
- 0.0
- 0.0
- 0.0
- 0.0
- 0.0
- 0.0
- 0.0
- 0.0
- 0.0
- 0.0
- 0.0
- 0.0
- 0.0
- 0.0
- 0.0
- 0.0
- 0.0
- 0.0
- 0.0
- 0.0
- 0.0
- 0.0
- 0.0
- 0.0
- 0.0
- 0.0
- 0.0
- 0.0
- 0.0
- 0.0
- 0.0
- 0.0
- 0.0
- 0.0
- 0.0
- 0.0
- 0.0
- 0.0
- 0.0
- 0.0
- '...'
---
header:
  stamp:
    sec: 524
    nanosec: 716000000
  frame_id: base_scan
angle_min: 0.0
angle_max: 6.28000020980835
angle_increment: 0.01749303564429283
time_increment: 0.0
scan_time: 0.0
range_min: 0.11999999731779099
range_max: 3.5
ranges:
- 1.974288821220398
- 1.958178162574768
- 1.9911149740219116
- 1.9904589653015137
- 1.9867279529571533
- 1.9879311323165894
- 2.0066592693328857
- 1.992647647857666
- 2.0297622680664062
- 2.011831760406494
- 2.038395643234253
- 2.0473198890686035
- 2.0568721294403076
- 2.0813186168670654
- 2.0538673400878906
- 2.0793933868408203
- 2.0991435050964355
- 2.122144937515259
- 2.1244454383850098
- 2.129690170288086
- 2.154869794845581
- 2.194370985031128
- 2.191685914993286
- 2.224795341491699
- 2.2273879051208496
- 2.2668516635894775
- 2.2671656608581543
- 2.292043924331665
- 2.321288824081421
- 2.358433723449707
- 2.3690290451049805
- 2.3958206176757812
- 2.4499619007110596
- 2.481790781021118
- 2.505230188369751
- 2.5383129119873047
- 2.574256181716919
- 2.610258102416992
- 2.6690468788146973
- 2.7181568145751953
- 2.766720771789551
- 2.7939224243164062
- 2.8388426303863525
- 2.919447183609009
- 2.946218252182007
- 3.023242950439453
- 3.0737318992614746
- 3.1445183753967285
- 3.2008118629455566
- 3.2571942806243896
- 3.2015438079833984
- 3.1963768005371094
- 3.1410224437713623
- 3.1146655082702637
- 1.3263741731643677
- 1.296250820159912
- 1.2796990871429443
- 1.2629543542861938
- 1.236051082611084
- 1.2566730976104736
- 1.2350153923034668
- 1.2634401321411133
- 1.232153058052063
- 1.2739720344543457
- 1.2950279712677002
- 1.3459486961364746
- 2.7685787677764893
- 2.750744104385376
- 2.7370262145996094
- 2.7230477333068848
- 2.710834503173828
- 2.677441358566284
- 2.691441297531128
- 2.6756439208984375
- 2.657308340072632
- 2.6519663333892822
- 2.6537537574768066
- 2.6349151134490967
- 2.6207242012023926
- 2.6147632598876953
- 2.6185708045959473
- 2.6131532192230225
- 2.606649160385132
- 2.6074934005737305
- 2.6064724922180176
- 2.6152660846710205
- 2.613598108291626
- 2.5920164585113525
- 2.609344005584717
- 2.6007907390594482
- 2.633579730987549
- 2.6099424362182617
- 2.6096785068511963
- 2.637593984603882
- 2.6360630989074707
- 2.6492249965667725
- 2.6442058086395264
- 2.6707491874694824
- 2.6599581241607666
- 2.6795010566711426
- 2.6844496726989746
- 2.71980357170105
- 2.7193305492401123
- 2.727353096008301
- 2.7396252155303955
- 2.767526626586914
- 2.7782254219055176
- 2.776315689086914
- 2.821390151977539
- 2.8549129962921143
- 2.852088212966919
- 2.8756537437438965
- 2.896544933319092
- 2.9326603412628174
- 2.9601328372955322
- 2.9929628372192383
- 3.030211925506592
- 3.0617756843566895
- 3.0879125595092773
- 3.1081907749176025
- 3.1714093685150146
- 3.1775145530700684
- 3.233651638031006
- 3.2726211547851562
- 3.3382773399353027
- 3.37153959274292
- 3.410390615463257
- 3.4738945960998535
- '...'
intensities:
- 0.0
- 0.0
- 0.0
- 0.0
- 0.0
- 0.0
- 0.0
- 0.0
- 0.0
- 0.0
- 0.0
- 0.0
- 0.0
- 0.0
- 0.0
- 0.0
- 0.0
- 0.0
- 0.0
- 0.0
- 0.0
- 0.0
- 0.0
- 0.0
- 0.0
- 0.0
- 0.0
- 0.0
- 0.0
- 0.0
- 0.0
- 0.0
- 0.0
- 0.0
- 0.0
- 0.0
- 0.0
- 0.0
- 0.0
- 0.0
- 0.0
- 0.0
- 0.0
- 0.0
- 0.0
- 0.0
- 0.0
- 0.0
- 0.0
- 0.0
- 0.0
- 0.0
- 0.0
- 0.0
- 0.0
- 0.0
- 0.0
- 0.0
- 0.0
- 0.0
- 0.0
- 0.0
- 0.0
- 0.0
- 0.0
- 0.0
- 0.0
- 0.0
- 0.0
- 0.0
- 0.0
- 0.0
- 0.0
- 0.0
- 0.0
- 0.0
- 0.0
- 0.0
- 0.0
- 0.0
- 0.0
- 0.0
- 0.0
- 0.0
- 0.0
- 0.0
- 0.0
- 0.0
- 0.0
- 0.0
- 0.0
- 0.0
- 0.0
- 0.0
- 0.0
- 0.0
- 0.0
- 0.0
- 0.0
- 0.0
- 0.0
- 0.0
- 0.0
- 0.0
- 0.0
- 0.0
- 0.0
- 0.0
- 0.0
- 0.0
- 0.0
- 0.0
- 0.0
- 0.0
- 0.0
- 0.0
- 0.0
- 0.0
- 0.0
- 0.0
- 0.0
- 0.0
- 0.0
- 0.0
- 0.0
- 0.0
- 0.0
- 0.0
- '...'
---
header:
  stamp:
    sec: 524
    nanosec: 916000000
  frame_id: base_scan
angle_min: 0.0
angle_max: 6.28000020980835
angle_increment: 0.01749303564429283
time_increment: 0.0
scan_time: 0.0
range_min: 0.11999999731779099
range_max: 3.5
ranges:
- 1.9731440544128418
- 1.9787060022354126
- 1.9676538705825806
- 1.9949339628219604
- 1.9951549768447876
- 1.9892172813415527
- 1.9759382009506226
- 2.021449089050293
- 2.030165195465088
- 2.033613443374634
- 2.040290594100952
- 2.0413286685943604
- 2.0696966648101807
- 2.0716280937194824
- 2.0725762844085693
- 2.0835788249969482
- 2.1016571521759033
- 2.109307050704956
- 2.131237030029297
- 2.147730827331543
- 2.160076141357422
- 2.1744484901428223
- 2.1984505653381348
- 2.212498188018799
- 2.2492148876190186
- 2.252122640609741
- 2.271984577178955
- 2.304818630218506
- 2.329846143722534
- 2.3559651374816895
- 2.3814327716827393
- 2.3980252742767334
- 2.4525163173675537
- 2.468437433242798
- 2.508183002471924
- 2.534351110458374
- 2.572922945022583
- 2.6222426891326904
- 2.656148672103882
- 2.7040622234344482
- 2.7345046997070312
- 2.7784042358398438
- 2.8444643020629883
- 2.9020273685455322
- 2.9531807899475098
- 3.0073599815368652
- 3.0733799934387207
- 3.1353697776794434
- 3.2232213020324707
- 3.2535581588745117
- 3.2182891368865967
- 3.1603431701660156
- 3.149158000946045
- 3.0839107036590576
- 1.3184772729873657
- 1.2920122146606445
- 1.266272783279419
- 1.2454490661621094
- 1.2494206428527832
- 1.238739252090454
- 1.2507938146591187
- 1.2467780113220215
- 1.266867995262146
- 1.2815163135528564
- 1.2842556238174438
- 1.3194239139556885
- 2.780466079711914
- 2.7534306049346924
- 2.726837635040283
- 2.713165760040283
- 2.7257187366485596
- 2.6907031536102295
- 2.685246706008911
- 2.6505610942840576
- 2.653074026107788
- 2.661421537399292
- 2.636336326599121
- 2.6468615531921387
- 2.6452572345733643
- 2.6180102825164795
- 2.63523006439209
- 2.6145694255828857
- 2.6277196407318115
- 2.6141247749328613
- 2.607454538345337
- 2.6124911308288574
- 2.588196039199829
- 2.605088710784912
- 2.5973727703094482
- 2.6127421855926514
- 2.5956227779388428
- 2.629892349243164
- 2.6132256984710693
- 2.6243886947631836
- 2.6379616260528564
- 2.638995409011841
- 2.661017656326294
- 2.647022247314453
- 2.661383628845215
- 2.680269718170166
- 2.697650194168091
- 2.709845542907715
- 2.7204370498657227
- 2.7138350009918213
- 2.7335212230682373
- 2.7627220153808594
- 2.786020278930664
- 2.793797731399536
- 2.8216712474823
- 2.8399572372436523
- 2.853987455368042
- 2.8840909004211426
- 2.905217170715332
- 2.938004970550537
- 2.9462544918060303
- 2.9848520755767822
- 3.024290084838867
- 3.051048994064331
- 3.084723949432373
- 3.1020634174346924
- 3.1568336486816406
- 3.2029247283935547
- 3.2244434356689453
- 3.2745048999786377
- 3.318415880203247
- 3.3770015239715576
- 3.4302327632904053
- 3.4986371994018555
- '...'
intensities:
- 0.0
- 0.0
- 0.0
- 0.0
- 0.0
- 0.0
- 0.0
- 0.0
- 0.0
- 0.0
- 0.0
- 0.0
- 0.0
- 0.0
- 0.0
- 0.0
- 0.0
- 0.0
- 0.0
- 0.0
- 0.0
- 0.0
- 0.0
- 0.0
- 0.0
- 0.0
- 0.0
- 0.0
- 0.0
- 0.0
- 0.0
- 0.0
- 0.0
- 0.0
- 0.0
- 0.0
- 0.0
- 0.0
- 0.0
- 0.0
- 0.0
- 0.0
- 0.0
- 0.0
- 0.0
- 0.0
- 0.0
- 0.0
- 0.0
- 0.0
- 0.0
- 0.0
- 0.0
- 0.0
- 0.0
- 0.0
- 0.0
- 0.0
- 0.0
- 0.0
- 0.0
- 0.0
- 0.0
- 0.0
- 0.0
- 0.0
- 0.0
- 0.0
- 0.0
- 0.0
- 0.0
- 0.0
- 0.0
- 0.0
- 0.0
- 0.0
- 0.0
- 0.0
- 0.0
- 0.0
- 0.0
- 0.0
- 0.0
- 0.0
- 0.0
- 0.0
- 0.0
- 0.0
- 0.0
- 0.0
- 0.0
- 0.0
- 0.0
- 0.0
- 0.0
- 0.0
- 0.0
- 0.0
- 0.0
- 0.0
- 0.0
- 0.0
- 0.0
- 0.0
- 0.0
- 0.0
- 0.0
- 0.0
- 0.0
- 0.0
- 0.0
- 0.0
- 0.0
- 0.0
- 0.0
- 0.0
- 0.0
- 0.0
- 0.0
- 0.0
- 0.0
- 0.0
- 0.0
- 0.0
- 0.0
- 0.0
- 0.0
- 0.0
- '...'
---
header:
  stamp:
    sec: 525
    nanosec: 116000000
  frame_id: base_scan
angle_min: 0.0
angle_max: 6.28000020980835
angle_increment: 0.01749303564429283
time_increment: 0.0
scan_time: 0.0
range_min: 0.11999999731779099
range_max: 3.5
ranges:
- 1.9618948698043823
- 1.9626351594924927
- 1.9797321557998657
- 1.9872446060180664
- 1.9852858781814575
- 1.9863303899765015
- 1.9981112480163574
- 2.001469135284424
- 2.015808343887329
- 2.024963855743408
- 2.0337984561920166
- 2.0505974292755127
- 2.0470919609069824
- 2.0553579330444336
- 2.0816023349761963
- 2.080920457839966
- 2.0967369079589844
- 2.113764762878418
- 2.1268835067749023
- 2.1619718074798584
- 2.169867753982544
- 2.1800780296325684
- 2.1850621700286865
- 2.2183637619018555
- 2.2495291233062744
- 2.240605115890503
- 2.270768642425537
- 2.2872018814086914
- 2.328716516494751
- 2.346320629119873
- 2.3796534538269043
- 2.413038492202759
- 2.4451520442962646
- 2.4504826068878174
- 2.5239338874816895
- 2.52725887298584
- 2.5848629474639893
- 2.6136696338653564
- 2.6536643505096436
- 2.6988613605499268
- 2.726454257965088
- 2.780630588531494
- 2.855365037918091
- 2.890747547149658
- 2.9672887325286865
- 3.0095441341400146
- 3.082427978515625
- 3.144756555557251
- 3.21783447265625
- 3.2592039108276367
- 3.2006115913391113
- 3.1845827102661133
- 3.1374950408935547
- 3.0779566764831543
- 1.337934970855713
- 1.307177186012268
- 1.2716710567474365
- 1.2670061588287354
- 1.2436845302581787
- 1.2495609521865845
- 1.2404181957244873
- 1.2540379762649536
- 1.2538009881973267
- 1.2587087154388428
- 1.2898451089859009
- 1.3331695795059204
- 2.796121597290039
- 2.7574243545532227
- 2.7375876903533936
- 2.7423994541168213
- 2.7182154655456543
- 2.6904218196868896
- 2.6878180503845215
- 2.6579489707946777
- 2.649709463119507
- 2.661431312561035
- 2.6298766136169434
- 2.648350715637207
- 2.6360764503479004
- 2.63021183013916
- 2.6028590202331543
- 2.6118922233581543
- 2.6078643798828125
- 2.609121799468994
- 2.5992543697357178
- 2.614414691925049
- 2.599818468093872
- 2.6088640689849854
- 2.6108171939849854
- 2.6230971813201904
- 2.6119301319122314
- 2.619286060333252
- 2.6266415119171143
- 2.6216135025024414
- 2.637820243835449
- 2.6361727714538574
- 2.657723903656006
- 2.6643002033233643
- 2.6702914237976074
- 2.6734673976898193
- 2.6809372901916504
- 2.696826696395874
- 2.722987174987793
- 2.7187628746032715
- 2.7477223873138428
- 2.74715518951416
- 2.7980613708496094
- 2.783315420150757
- 2.821176528930664
- 2.822335720062256
- 2.8684310913085938
- 2.8968820571899414
- 2.888038158416748
- 2.93320631980896
- 2.960031032562256
- 2.9948840141296387
- 3.0102949142456055
- 3.046243190765381
- 3.0728728771209717
- 3.1435887813568115
- 3.1541907787323
- 3.1953682899475098
- 3.2221901416778564
- 3.287949323654175
- 3.326824426651001
- 3.3701419830322266
- 3.4172627925872803
- 3.4674270153045654
- '...'
intensities:
- 0.0
- 0.0
- 0.0
- 0.0
- 0.0
- 0.0
- 0.0
- 0.0
- 0.0
- 0.0
- 0.0
- 0.0
- 0.0
- 0.0
- 0.0
- 0.0
- 0.0
- 0.0
- 0.0
- 0.0
- 0.0
- 0.0
- 0.0
- 0.0
- 0.0
- 0.0
- 0.0
- 0.0
- 0.0
- 0.0
- 0.0
- 0.0
- 0.0
- 0.0
- 0.0
- 0.0
- 0.0
- 0.0
- 0.0
- 0.0
- 0.0
- 0.0
- 0.0
- 0.0
- 0.0
- 0.0
- 0.0
- 0.0
- 0.0
- 0.0
- 0.0
- 0.0
- 0.0
- 0.0
- 0.0
- 0.0
- 0.0
- 0.0
- 0.0
- 0.0
- 0.0
- 0.0
- 0.0
- 0.0
- 0.0
- 0.0
- 0.0
- 0.0
- 0.0
- 0.0
- 0.0
- 0.0
- 0.0
- 0.0
- 0.0
- 0.0
- 0.0
- 0.0
- 0.0
- 0.0
- 0.0
- 0.0
- 0.0
- 0.0
- 0.0
- 0.0
- 0.0
- 0.0
- 0.0
- 0.0
- 0.0
- 0.0
- 0.0
- 0.0
- 0.0
- 0.0
- 0.0
- 0.0
- 0.0
- 0.0
- 0.0
- 0.0
- 0.0
- 0.0
- 0.0
- 0.0
- 0.0
- 0.0
- 0.0
- 0.0
- 0.0
- 0.0
- 0.0
- 0.0
- 0.0
- 0.0
- 0.0
- 0.0
- 0.0
- 0.0
- 0.0
- 0.0
- 0.0
- 0.0
- 0.0
- 0.0
- 0.0
- 0.0
- '...'
---
header:
  stamp:
    sec: 525
    nanosec: 316000000
  frame_id: base_scan
angle_min: 0.0
angle_max: 6.28000020980835
angle_increment: 0.01749303564429283
time_increment: 0.0
scan_time: 0.0
range_min: 0.11999999731779099
range_max: 3.5
ranges:
- 1.9675624370574951
- 1.97551429271698
- 1.9688465595245361
- 1.9867953062057495
- 1.9776993989944458
- 1.9972965717315674
- 1.9830071926116943
- 1.998553991317749
- 2.029642105102539
- 2.02850604057312
- 2.0379364490509033
- 2.027256727218628
- 2.040989398956299
- 2.0705368518829346
- 2.057434558868408
- 2.1001391410827637
- 2.107166051864624
- 2.1058759689331055
- 2.1265316009521484
- 2.1299450397491455
- 2.1515097618103027
- 2.1815059185028076
- 2.182098150253296
- 2.2144436836242676
- 2.2311322689056396
- 2.248603343963623
- 2.2783920764923096
- 2.302631139755249
- 2.33805251121521
- 2.3334386348724365
- 2.3740243911743164
- 2.402836561203003
- 2.4331629276275635
- 2.480625629425049
- 2.5131099224090576
- 2.5428402423858643
- 2.5930824279785156
- 2.623552083969116
- 2.656529426574707
- 2.682422399520874
- 2.7599868774414062
- 2.8024001121520996
- 2.857637882232666
- 2.882014274597168
- 2.969343423843384
- 3.0123627185821533
- 3.0869555473327637
- 3.1370139122009277
- 3.2199862003326416
- 3.247360944747925
- 3.211148738861084
- 3.1800496578216553
- 3.1483240127563477
- 3.092043399810791
- 1.3308988809585571
- 1.3064756393432617
- 1.278181791305542
- 1.249084711074829
- 1.2551625967025757
- 1.2660585641860962
- 1.2368115186691284
- 1.2323378324508667
- 1.2467613220214844
- 1.281159520149231
- 1.3022090196609497
- 1.3362889289855957
- 2.7691547870635986
- 2.737534523010254
- 2.743614673614502
- 2.733837842941284
- 2.7119529247283936
- 2.664273738861084
- 2.7023518085479736
- 2.6798040866851807
- 2.6662731170654297
- 2.653742790222168
- 2.6467249393463135
- 2.639526128768921
- 2.632351875305176
- 2.617461681365967
- 2.6030988693237305
- 2.619382619857788
- 2.6001241207122803
- 2.6273438930511475
- 2.617344617843628
- 2.6136815547943115
- 2.602358818054199
- 2.6064908504486084
- 2.593665361404419
- 2.6138627529144287
- 2.6232798099517822
- 2.6080992221832275
- 2.624094247817993
- 2.608996868133545
- 2.6434266567230225
- 2.6488215923309326
- 2.6738665103912354
- 2.6686477661132812
- 2.6651973724365234
- 2.6840946674346924
- 2.6750874519348145
- 2.6943001747131348
- 2.6995768547058105
- 2.7413034439086914
- 2.741307020187378
- 2.760115623474121
- 2.7877862453460693
- 2.8045334815979004
- 2.8102054595947266
- 2.8193914890289307
- 2.8583056926727295
- 2.887885808944702
- 2.931504249572754
- 2.929396629333496
- 2.977302312850952
- 3.0051515102386475
- 3.0117170810699463
- 3.0622124671936035
- 3.098926305770874
- 3.1231818199157715
- 3.1680939197540283
- 3.2044155597686768
- 3.2330591678619385
- 3.2736430168151855
- 3.3427393436431885
- 3.3647265434265137
- 3.4159440994262695
- 3.476344347000122
- '...'
intensities:
- 0.0
- 0.0
- 0.0
- 0.0
- 0.0
- 0.0
- 0.0
- 0.0
- 0.0
- 0.0
- 0.0
- 0.0
- 0.0
- 0.0
- 0.0
- 0.0
- 0.0
- 0.0
- 0.0
- 0.0
- 0.0
- 0.0
- 0.0
- 0.0
- 0.0
- 0.0
- 0.0
- 0.0
- 0.0
- 0.0
- 0.0
- 0.0
- 0.0
- 0.0
- 0.0
- 0.0
- 0.0
- 0.0
- 0.0
- 0.0
- 0.0
- 0.0
- 0.0
- 0.0
- 0.0
- 0.0
- 0.0
- 0.0
- 0.0
- 0.0
- 0.0
- 0.0
- 0.0
- 0.0
- 0.0
- 0.0
- 0.0
- 0.0
- 0.0
- 0.0
- 0.0
- 0.0
- 0.0
- 0.0
- 0.0
- 0.0
- 0.0
- 0.0
- 0.0
- 0.0
- 0.0
- 0.0
- 0.0
- 0.0
- 0.0
- 0.0
- 0.0
- 0.0
- 0.0
- 0.0
- 0.0
- 0.0
- 0.0
- 0.0
- 0.0
- 0.0
- 0.0
- 0.0
- 0.0
- 0.0
- 0.0
- 0.0
- 0.0
- 0.0
- 0.0
- 0.0
- 0.0
- 0.0
- 0.0
- 0.0
- 0.0
- 0.0
- 0.0
- 0.0
- 0.0
- 0.0
- 0.0
- 0.0
- 0.0
- 0.0
- 0.0
- 0.0
- 0.0
- 0.0
- 0.0
- 0.0
- 0.0
- 0.0
- 0.0
- 0.0
- 0.0
- 0.0
- 0.0
- 0.0
- 0.0
- 0.0
- 0.0
- 0.0
- '...'
---
header:
  stamp:
    sec: 525
    nanosec: 515000000
  frame_id: base_scan
angle_min: 0.0
angle_max: 6.28000020980835
angle_increment: 0.01749303564429283
time_increment: 0.0
scan_time: 0.0
range_min: 0.11999999731779099
range_max: 3.5
ranges:
- 1.9757453203201294
- 1.9895238876342773
- 2.00187349319458
- 1.9763846397399902
- 1.9964323043823242
- 1.9876782894134521
- 1.9995347261428833
- 2.013695478439331
- 2.0232527256011963
- 2.0287208557128906
- 2.0533785820007324
- 2.037871837615967
- 2.037726640701294
- 2.0516560077667236
- 2.0637569427490234
- 2.078068971633911
- 2.084843397140503
- 2.1061975955963135
- 2.1117115020751953
- 2.1493141651153564
- 2.163048267364502
- 2.1749894618988037
- 2.1958160400390625
- 2.2040984630584717
- 2.2372686862945557
- 2.244357109069824
- 2.288167715072632
- 2.3014719486236572
- 2.3148365020751953
- 2.343078851699829
- 2.3774349689483643
- 2.4025049209594727
- 2.4493961334228516
- 2.4804537296295166
- 2.482783079147339
- 2.541529893875122
- 2.575653076171875
- 2.6323401927948
- 2.655986785888672
- 2.6945860385894775
- 2.7462079524993896
- 2.803159475326538
- 2.843033790588379
- 2.9084889888763428
- 2.9719879627227783
- 3.0203123092651367
- 3.0736515522003174
- 3.1438639163970947
- 3.2101550102233887
- 3.2646946907043457
- 3.216567277908325
- 3.1796011924743652
- 3.13761830329895
- 3.09881854057312
- 1.3182166814804077
- 1.2882277965545654
- 1.2603236436843872
- 1.2821171283721924
- 1.250402808189392
- 1.2538529634475708
- 1.2562235593795776
- 1.2379417419433594
- 1.2652676105499268
- 1.2578767538070679
- 1.2871081829071045
- 1.3394629955291748
- 2.7669527530670166
- 2.7549285888671875
- 2.736711025238037
- 2.7320621013641357
- 2.694700002670288
- 2.6982953548431396
- 2.6807827949523926
- 2.674978494644165
- 2.637568950653076
- 2.662822723388672
- 2.656912088394165
- 2.6246492862701416
- 2.63887882232666
- 2.6225268840789795
- 2.6218485832214355
- 2.6274843215942383
- 2.626213312149048
- 2.598374366760254
- 2.6084864139556885
- 2.6085116863250732
- 2.607675552368164
- 2.595142364501953
- 2.6104347705841064
- 2.6068615913391113
- 2.6056172847747803
- 2.6035425662994385
- 2.6068873405456543
- 2.6476852893829346
- 2.642702102661133
- 2.6461336612701416
- 2.6719629764556885
- 2.660909652709961
- 2.679598808288574
- 2.675492525100708
- 2.70725154876709
- 2.688422679901123
- 2.720787763595581
- 2.7287073135375977
- 2.7395567893981934
- 2.766474485397339
- 2.7875900268554688
- 2.7970685958862305
- 2.8143668174743652
- 2.8372364044189453
- 2.858741521835327
- 2.9009039402008057
- 2.9045279026031494
- 2.9402782917022705
- 2.9840171337127686
- 2.9929208755493164
- 3.0243637561798096
- 3.0576326847076416
- 3.062183380126953
- 3.1129822731018066
- 3.159114360809326
- 3.2083442211151123
- 3.245903491973877
- 3.309818983078003
- 3.3410611152648926
- 3.3599672317504883
- 3.4132871627807617
- 3.4679083824157715
- '...'
intensities:
- 0.0
- 0.0
- 0.0
- 0.0
- 0.0
- 0.0
- 0.0
- 0.0
- 0.0
- 0.0
- 0.0
- 0.0
- 0.0
- 0.0
- 0.0
- 0.0
- 0.0
- 0.0
- 0.0
- 0.0
- 0.0
- 0.0
- 0.0
- 0.0
- 0.0
- 0.0
- 0.0
- 0.0
- 0.0
- 0.0
- 0.0
- 0.0
- 0.0
- 0.0
- 0.0
- 0.0
- 0.0
- 0.0
- 0.0
- 0.0
- 0.0
- 0.0
- 0.0
- 0.0
- 0.0
- 0.0
- 0.0
- 0.0
- 0.0
- 0.0
- 0.0
- 0.0
- 0.0
- 0.0
- 0.0
- 0.0
- 0.0
- 0.0
- 0.0
- 0.0
- 0.0
- 0.0
- 0.0
- 0.0
- 0.0
- 0.0
- 0.0
- 0.0
- 0.0
- 0.0
- 0.0
- 0.0
- 0.0
- 0.0
- 0.0
- 0.0
- 0.0
- 0.0
- 0.0
- 0.0
- 0.0
- 0.0
- 0.0
- 0.0
- 0.0
- 0.0
- 0.0
- 0.0
- 0.0
- 0.0
- 0.0
- 0.0
- 0.0
- 0.0
- 0.0
- 0.0
- 0.0
- 0.0
- 0.0
- 0.0
- 0.0
- 0.0
- 0.0
- 0.0
- 0.0
- 0.0
- 0.0
- 0.0
- 0.0
- 0.0
- 0.0
- 0.0
- 0.0
- 0.0
- 0.0
- 0.0
- 0.0
- 0.0
- 0.0
- 0.0
- 0.0
- 0.0
- 0.0
- 0.0
- 0.0
- 0.0
- 0.0
- 0.0
- '...'
---
root@docker-desktop:/turtlebot3_ws#